[{"name": "Leanne Graham", "phone": "1-770-736-8031 x56442", "geo": {"lat": "-37.3159", "lng": "81.1496"}}, {"name": "Ervin Howell", "phone": "010-692-6593 x09125", "geo": {"lat": "-43.9509", "lng": "-34.4618"}}, {"name": "Clementine Bauch", "phone": "1-463-123-4447", "geo": {"lat": "-68.6102", "lng": "-47.0653"}}, {"name": "Patricia Lebsack", "phone": "493-170-9623 x156", "geo": {"lat": "29.4572", "lng": "-164.2990"}}, {"name": "Chelsey Dietrich", "phone": "(254)954-1289", "geo": {"lat": "-31.8129", "lng": "62.5342"}}, {"name": "Mrs. Dennis Schulist", "phone": "1-477-935-8478 x6430", "geo": {"lat": "-71.4197", "lng": "71.7478"}}, {"name": "Kurtis Weissnat", "phone": "210.067.6132", "geo": {"lat": "24.8918", "lng": "21.8984"}}, {"name": "Nicholas Runolfsdottir V", "phone": "586.493.6943 x140", "geo": {"lat": "-14.3990", "lng": "-120.7677"}}, {"name": "Glenna Reichert", "phone": "(775)976-6794 x41206", "geo": {"lat": "24.6463", "lng": "-168.8889"}}, {"name": "Clementina DuBuque", "phone": "024-648-3804", "geo": {"lat": "-38.2386", "lng": "57.2232"}}]